[
  {
    "name": "敖德薩歷史中心",
    "country": "烏克蘭",
    "lat": 46.4825,
    "lon": 30.7233,
    "reason": "武裝衝突：因戰爭持續遭受飛彈威脅與基礎設施損毀。"
  },
  {
    "name": "阿勒頗古城",
    "country": "敘利亞",
    "lat": 36.1992,
    "lon": 37.1639,
    "reason": "戰爭與動盪：長期內戰導致古市集與地標慘遭毀滅性破壞。"
  },
  {
    "name": "巴米揚峽谷考古遺址",
    "country": "阿富汗",
    "lat": 34.8217,
    "lon": 67.8192,
    "reason": "人為破壞：曾遭塔利班炸毀大佛，現面臨地雷與管理缺失。"
  },
  {
    "name": "維也納歷史中心",
    "country": "奧地利",
    "lat": 48.2082,
    "lon": 16.3738,
    "reason": "城市過度開發：現代高樓建築計畫破壞了古城的整體景觀天際線。"
  },
  {
    "name": "昌昌城考古地區",
    "country": "秘魯",
    "lat": -8.11,
    "lon": -79.0733,
    "reason": "氣候變遷：聖嬰現象帶來的強降雨正迅速侵蝕這座古代土製城市。"
  },
  {
    "name": "廷巴克圖古城",
    "country": "馬利",
    "lat": 16.7666,
    "lon": -3.0026,
    "reason": "武裝衝突與沙漠化：因地區衝突難以維護，且面臨撒哈拉沙漠吞噬。"
  },
  {
    "name": "科羅及其港口",
    "country": "委內瑞拉",
    "lat": 11.4111,
    "lon": -69.6739,
    "reason": "自然侵蝕：獨特的土坏建築受極端氣候影響且缺乏修繕資金。"
  },
  {
    "name": "賈姆尖塔",
    "country": "阿富汗",
    "lat": 34.3964,
    "lon": 64.5161,
    "reason": "地理災害：位於河谷地帶，長年受洪水侵蝕及地震威脅。"
  },
  {
    "name": "查比德歷史古城",
    "country": "葉門",
    "lat": 14.1956,
    "lon": 43.315,
    "reason": "戰爭與貧困：受葉門內戰波及，傳統建築逐漸頹圮。"
  },
  {
    "name": "巴提爾文化景觀",
    "country": "巴勒斯坦",
    "lat": 31.7225,
    "lon": 35.14,
    "reason": "地緣政治：因隔離牆建設與開發，威脅其千年灌溉梯田。"
  }
]